{"type":"FeatureCollection","features":[{"type":"Feature","properties":{"City_Names":"Schaffhausen","y__latitud":47.69732,"x__longitu":8.63493},"geometry":{"type":"Point","coordinates":[8.63493,47.69732]}},{"type":"Feature","properties":{"City_Names":"Lake Constance","y__latitud":47.58333,"x__longitu":9.46667},"geometry":{"type":"Point","coordinates":[9.46667,47.58333]}},{"type":"Feature","properties":{"City_Names":"Rorschach","y__latitud":47.478,"x__longitu":9.4903},"geometry":{"type":"Point","coordinates":[9.4903,47.478]}},{"type":"Feature","properties":{"City_Names":"Wirtenberg","y__latitud":47.16976,"x__longitu":9.45494},"geometry":{"type":"Point","coordinates":[9.45494,47.16976]}},{"type":"Feature","properties":{"City_Names":"Sargens","y__latitud":47.04896,"x__longitu":9.44103},"geometry":{"type":"Point","coordinates":[9.44103,47.04896]}},{"type":"Feature","properties":{"City_Names":"Coire","y__latitud":46.84986,"x__longitu":9.53287},"geometry":{"type":"Point","coordinates":[9.53287,46.84986]}},{"type":"Feature","properties":{"City_Names":"Pass of Via Mala","y__latitud":46.66098,"x__longitu":9.44694},"geometry":{"type":"Point","coordinates":[9.44694,46.66098]}},{"type":"Feature","properties":{"City_Names":"Splugen Village","y__latitud":46.5531,"x__longitu":9.3231},"geometry":{"type":"Point","coordinates":[9.3231,46.5531]}},

{"type":"Feature","properties":{"Shape_Leng":1.97033078169},"geometry":{"type":"LineString","coordinates":[[8.63493,47.69732],[9.46667,47.58333],[9.4903,47.478],[9.45494,47.16976],[9.44103,47.04896],[9.53287,46.84986],[9.44694,46.66098],[9.3231,46.5531]]}}]}